city,geocode_status,geocode_score,matched_address,lat,lon,station_id,station_name,station_lat,station_lon
"Detroit, MI",T,100.0,"Detroit, Michigan",42.33294070000005,-83.04783649999996,USW00014822,"DETROIT CITY AIRPORT, MI US",,
"Anchorage, AK",T,100.0,"Anchorage, Alaska",61.21658300000007,-149.89959699999997,USW00026451,"ANCHORAGE TED STEVENS INTERNATIONAL AIRPORT, AK US",,
"Atlanta, GA",M,100.0,"Atlanta, Georgia",33.74854700000003,-84.39150199999995,USW00013874,"ATLANTA HARTSFIELD JACKSON INTERNATIONAL AIRPORT, GA US",,
"Hartford, CT",T,100.0,"Hartford, Connecticut",41.765775000000076,-72.67335599999996,USW00014740,"HARTFORD BRADLEY INTERNATIONAL AIRPORT, CT US",,
"Bangor, ME",T,100.0,"Bangor, Maine",44.80160170000005,-68.77133349999997,USW00014606,"BANGOR INTERNATIONAL AIRPORT, ME US",,
"Teterboro, NJ",T,100.0,"Teterboro, New Jersey",40.865980000000036,-74.05443799999995,USW00094728,"NY CITY CENTRAL PARK, NY US",,
"Miami, FL",M,100.0,"Miami, Florida",25.77508400000005,-80.19470199999995,USW00012839,"MIAMI INTERNATIONAL AIRPORT, FL US",,
"Allentown/Bethlehem/Easton, PA",T,96.37,Allentown-Bethlehem-Easton Airport,40.50315000000006,-75.43962999999997,USW00013739,"PHILADELPHIA INTERNATIONAL AIRPORT, PA US",,
"Naples, FL",T,100.0,"Naples, Florida",26.147452100000066,-81.79545209999998,USW00012835,"FORT MYERS PAGE FIELD AIRPORT, FL US",,
"Austin, TX",T,100.0,"Austin, Texas",30.26497900000004,-97.74659799999995,USW00013958,"AUSTIN CAMP MABRY, TX US",,
"Boston, MA",T,100.0,"Boston, Massachusetts",42.35899420000004,-71.05862929999995,USW00014765,"RHODE ISLAND T.F. GREEN INTERNATIONAL AIRPORT, RI US",,
"Duluth, MN",T,100.0,"Duluth, Minnesota",46.78283630000004,-92.10551359999994,USW00014913,"DULUTH INTERNATIONAL AIRPORT, MN US",,
"Newark, NJ",T,100.0,"Newark, New Jersey",40.73150700000008,-74.17438769999995,USW00094728,"NY CITY CENTRAL PARK, NY US",,
"Fort Lauderdale, FL",T,100.0,"Fort Lauderdale, Florida",26.124163100000033,-80.14358619999996,USW00012844,"WEST PALM BEACH INTERNATIONAL AIRPORT, FL US",,
"Westhampton, NY",T,100.0,"Westhampton, New York",40.82493000000005,-72.66592399999996,USW00094702,"IGOR I SIKORSKY MEMORIAL AIRPORT, CT US",,
"Houston, TX",T,100.0,"Houston, Texas",29.760802600000034,-95.36950619999999,USW00012918,"HOUSTON WILLIAM P HOBBY AIRPORT, TX US",,
"White Plains, NY",T,100.0,"White Plains, New York",41.032726800000034,-73.76632519999998,USW00094728,"NY CITY CENTRAL PARK, NY US",,
"Washington, DC",T,100.0,"Washington, District of Columbia",38.89206210000003,-77.01991239999995,USW00093721,"BALTIMORE WASHINGTON INTERNATIONAL AIRPORT, MD US",,
"New York, NY",T,100.0,New York,40.71304660000004,-74.00723009999996,USW00094728,"NY CITY CENTRAL PARK, NY US",,
"Laredo, TX",T,100.0,"Laredo, Texas",27.50712930000003,-99.50749569999994,USW00012907,"LAREDO INTERNATIONAL AIRPORT, TX US",,
"New Orleans, LA",T,100.0,"New Orleans, Louisiana",29.95176340000006,-90.07461679999994,USW00012916,"NEW ORLEANS AIRPORT, LA US",,
"Phoenix, AZ",T,100.0,"Phoenix, Arizona",33.44820400000003,-112.07258479999996,USW00023183,"PHOENIX AIRPORT, AZ US",,
"St. Petersburg, FL",T,100.0,"St. Petersburg, Florida",27.770860000000027,-82.67926999999997,USW00012842,"TAMPA INTERNATIONAL AIRPORT, FL US",,
"Providence, RI",T,100.0,"Providence, Rhode Island",41.82446100000004,-71.41274699999997,USW00014765,"RHODE ISLAND T.F. GREEN INTERNATIONAL AIRPORT, RI US",,
"Raleigh/Durham, NC",M,98.12,"Raleigh Rd, Chapel Hill, North Carolina, 27517",35.90799812900008,-78.99260523499998,USW00013722,"RALEIGH DURHAM INTERNATIONAL AIRPORT, NC US",,
"San Diego, CA",T,100.0,"San Diego, California",32.715760000000046,-117.16381729999995,USW00023188,"SAN DIEGO INTERNATIONAL AIRPORT, CA US",,
"San Francisco, CA",M,100.0,"San Francisco, California",37.78007710000003,-122.42016149999995,USW00023234,"SAN FRANCISCO INTERNATIONAL AIRPORT, CA US",,
"Sarasota/Bradenton, FL",M,97.74,"Bradenton, Florida",27.488962000000072,-82.56279799999999,USW00012842,"TAMPA INTERNATIONAL AIRPORT, FL US",,
"St. Louis, MO",T,100.0,"St. Louis, Missouri",38.63535500000006,-90.20098549999994,USW00013994,"ST LOUIS LAMBERT INTERNATIONAL AIRPORT, MO US",,
"Tampa, FL",T,100.0,"Tampa, Florida",27.94742300000007,-82.45877599999994,USW00012842,"TAMPA INTERNATIONAL AIRPORT, FL US",,
"Chicago, IL",T,100.0,"Chicago, Illinois",41.88322900000003,-87.63239799999997,USW00094846,"CHICAGO OHARE INTERNATIONAL AIRPORT, IL US",,
"Bedford, MA",T,100.0,"Bedford, Massachusetts",42.492237000000046,-71.27994899999999,USW00014745,"CONCORD MUNICIPAL AIRPORT, NH US",,
"San Juan, PR",T,100.0,San Juan,18.46630200000004,-66.10522899999995,RQW00011641,"SAN JUAN L M MARIN INTERNATIONAL AIRPORT, PR US",,
"San Jose, CA",T,100.0,"San Jose, California",37.334794300000056,-121.88814479999996,USW00023234,"SAN FRANCISCO INTERNATIONAL AIRPORT, CA US",,
"East Farmingdale, NY",T,100.0,"East Farmingdale, New York",40.72624300000007,-73.43080099999997,USW00094728,"NY CITY CENTRAL PARK, NY US",,
"Los Angeles, CA",T,100.0,"Los Angeles, California",34.052238000000045,-118.24334399999998,USW00023174,"LOS ANGELES INTERNATIONAL AIRPORT, CA US",,
"Melbourne, FL",T,100.0,"Melbourne, Florida",28.079931000000045,-80.60351599999996,USW00012815,"ORLANDO INTERNATIONAL AIRPORT, FL US",,
"Manchester, NH",T,100.0,"Manchester, New Hampshire",42.99092630000007,-71.46309079999997,USW00014745,"CONCORD MUNICIPAL AIRPORT, NH US",,
"Camp Springs, MD",T,100.0,"Camp Springs, Maryland",38.80135800000005,-76.90470199999999,USW00093721,"BALTIMORE WASHINGTON INTERNATIONAL AIRPORT, MD US",,
"Albany, NY",T,100.0,"Albany, New York",42.651725000000056,-73.75509299999999,USW00014735,"ALBANY INTERNATIONAL AIRPORT, NY US",,
"Fargo, ND",T,100.0,"Fargo, North Dakota",46.876959500000055,-96.78463619999997,USW00014914,"FARGO HECTOR INTERNATIONAL AIRPORT, ND US",,
"Greer, SC",T,100.0,"Greer, South Carolina",34.93931100000003,-82.22919499999995,USW00003870,"GRNVL SPART INTERNATIONAL AIRPORT, SC US",,
"Wilmington, DE",T,100.0,"Wilmington, Delaware",39.74443180000003,-75.54510029999994,USW00013739,"PHILADELPHIA INTERNATIONAL AIRPORT, PA US",,
"Indianapolis, IN",T,100.0,"Indianapolis, Indiana",39.76845000000003,-86.15621199999998,USW00093819,"INDIANAPOLIS INTERNATIONAL AIRPORT, IN US",,
"Cincinnati, OH",T,100.0,"Cincinnati, Ohio",39.12711000000007,-84.51438999999993,USW00093814,"CINCINNATI NORTHERN KENTUCKY INTERNATIONAL AIRPORT, KY US",,
"West Palm Beach/Palm Beach, FL",T,98.86,"West Palm Beach, Florida",26.71443940000006,-80.05494709999994,USW00012844,"WEST PALM BEACH INTERNATIONAL AIRPORT, FL US",,
"Philadelphia, PA",T,100.0,"Philadelphia, Pennsylvania",39.95106050000004,-75.16562039999997,USW00093730,"ATLANTIC CITY INTERNATIONAL AIRPORT, NJ US",,
"Pensacola, FL",T,100.0,"Pensacola, Florida",30.40689660000004,-87.21757109999999,USW00013899,"PENSACOLA REGIONAL AIRPORT, FL US",,
"Portsmouth, NH",T,100.0,"Portsmouth, New Hampshire",43.06490610000003,-70.76709079999995,USW00014745,"CONCORD MUNICIPAL AIRPORT, NH US",,
"Rockford, IL",T,100.0,"Rockford, Illinois",42.26680200000004,-89.08837699999998,USW00094822,"ROCKFORD GREATER ROCKFORD AIRPORT, IL US",,
"St. Cloud, MN",T,100.0,"St. Cloud, Minnesota",45.559293000000025,-94.15651699999995,USW00014926,"ST. CLOUD REGIONAL AIRPORT, MN US",,
"Newburgh/Poughkeepsie, NY",T,85.45,"Poughkeepsie, New York",41.69932200000005,-73.92169399999995,USW00094745,"WESTCHESTER CO AIRPORT, NY US",,
"Van Nuys, CA",T,100.0,"Van Nuys, Los Angeles, California",34.18465100000003,-118.44652399999995,USW00023174,"LOS ANGELES INTERNATIONAL AIRPORT, CA US",,
"Aspen, CO",T,100.0,"Aspen, Colorado",39.190665000000024,-106.81920099999996,USW00093009,"LEADVILLE LAKE CO AIRPORT, CO US",,
"Baltimore, MD",T,100.0,"Baltimore, Maryland",39.29044300000004,-76.61233299999998,USW00093721,"BALTIMORE WASHINGTON INTERNATIONAL AIRPORT, MD US",,
"Bozeman, MT",T,100.0,"Bozeman, Montana",45.67929400000003,-111.04661099999998,USC00241047,"BOZEMAN 6 W EXPERIMENTAL FARM, MT US",,
"International Falls, MN",T,100.0,"International Falls, Minnesota",48.600947000000076,-93.41581499999995,USW00014918,"INTERNATIONAL FALLS INTERNATIONAL AIRPORT, MN US",,
"Daytona Beach, FL",T,100.0,"Daytona Beach, Florida",29.20708540000004,-81.02072569999996,USW00012834,"DAYTONA BEACH INTERNATIONAL AIRPORT, FL US",,
"Dallas/Fort Worth, TX",M,100.0,Dallas-Fort Worth,32.58755400000007,-97.19885599999998,USW00013960,"DALLAS FAA AIRPORT, TX US",,
"Orlando, FL",T,100.0,"Orlando, Florida",28.538331000000028,-81.37887899999998,USW00012834,"DAYTONA BEACH INTERNATIONAL AIRPORT, FL US",,
"Las Vegas, NV",T,100.0,"Las Vegas, Nevada",36.16909210000006,-115.14057669999994,USW00023169,"HARRY REID INTERNATIONAL AIRPORT, NV US",,
"Fayetteville, NC",T,100.0,"Fayetteville, North Carolina",35.05441700000006,-78.88365899999997,USW00013776,"LUMBERTON REGIONAL AIRPORT, NC US",,
"Lubbock, TX",T,100.0,"Lubbock, Texas",33.58368840000003,-101.85495339999994,USW00023042,"LUBBOCK INTERNATIONAL AIRPORT, TX US",,
"Pittsburgh, PA",T,100.0,"Pittsburgh, Pennsylvania",40.44216760000006,-79.99495729999995,USW00094823,"PITTSBURGH INTERNATIONAL AIRPORT, PA US",,
"San Antonio, TX",T,100.0,"San Antonio, Texas",29.42517120000008,-98.49461399999996,USW00012921,"SAN ANTONIO INTERNATIONAL AIRPORT, TX US",,
"Gulf Shores, AL",T,100.0,"Gulf Shores, Alabama",30.272469000000058,-87.68742999999995,USW00013894,"MOBILE REGIONAL AIRPORT, AL US",,
"Dallas, TX",T,100.0,"Dallas, Texas",32.77797650000008,-96.79621479999997,USW00013960,"DALLAS FAA AIRPORT, TX US",,
"Savannah, GA",T,100.0,"Savannah, Georgia",32.080610200000024,-81.09009659999998,USW00003822,"SAVANNAH HILTON HEAD INTERNATIONAL AIRPORT, GA US",,
"Boca Raton, FL",T,100.0,"Boca Raton, Florida",26.350568000000067,-80.08991349999997,USW00012844,"WEST PALM BEACH INTERNATIONAL AIRPORT, FL US",,
"Nashville, TN",T,100.0,"Nashville, Tennessee",36.166349300000036,-86.77905409999994,USW00013897,"NASHVILLE INTERNATIONAL AIRPORT, TN US",,
"Columbia, SC",T,100.0,"Columbia, South Carolina",34.00928600000003,-81.03709399999997,USW00013883,"COLUMBIA METROPOLITAN AIRPORT, SC US",,
"Akron, OH",T,100.0,"Akron, Ohio",41.084821000000034,-81.51560699999999,USW00014895,"AKRON CANTON AIRPORT, OH US",,
"Chattanooga, TN",T,100.0,"Chattanooga, Tennessee",35.04575600000004,-85.30828699999995,USW00013882,"CHATTANOOGA AIRPORT, TN US",,
"Reno, NV",T,100.0,"Reno, Nevada",39.52690300000006,-119.81328299999996,USW00023185,"RENO AIRPORT, NV US",,
"Sacramento, CA",T,100.0,"Sacramento, California",38.57693470000004,-121.49495229999997,USW00023232,"SACRAMENTO AIRPORT ASOS, CA US",,
"Minneapolis, MN",T,100.0,"Minneapolis, Minnesota",44.97748590000003,-93.26436689999997,USW00014922,"MINNEAPOLIS ST. PAUL INTERNATIONAL AIRPORT, MN US",,
"Oakland, CA",T,100.0,"Oakland, California",37.80482800000004,-122.27247999999997,USW00023234,"SAN FRANCISCO INTERNATIONAL AIRPORT, CA US",,
"Columbus, OH",T,100.0,"Columbus, Ohio",39.962762000000055,-82.99629099999999,USW00014821,"JOHN GLENN INTERNATIONAL AIRPORT, OH US",,
"Charlotte, NC",T,100.0,"Charlotte, North Carolina",35.22378670000006,-80.84114129999995,USW00013881,"CHARLOTTE DOUGLAS AIRPORT, NC US",,
"Fort Wayne, IN",T,100.0,"Fort Wayne, Indiana",41.07747400000005,-85.13749499999994,USW00014827,"FORT WAYNE INTERNATIONAL AIRPORT, IN US",,
"Colorado Springs, CO",T,100.0,"Colorado Springs, Colorado",38.83522400000004,-104.81979799999999,USW00093058,"PUEBLO MEMORIAL AIRPORT, CO US",,
"Denver, CO",T,100.0,"Denver, Colorado",39.73845300000005,-104.98485299999999,USW00003017,"DENVER INTERNATIONAL AIRPORT, CO US",,
"Harlingen/San Benito, TX",M,100.0,"Harlingen-San Benito, Texas",26.262100000000032,-97.77368999999999,USW00012919,"BROWNSVILLE S PADRE ISLAND INTERNATIONAL AIRPORT, TX US",,
"Guam, TT",T,85.8,Guam,13.443563908000044,144.77762780500007,GQW00041406,"GUAM INTERNATIONAL AIRPORT, GU GQ",,
"Albuquerque, NM",T,100.0,"Albuquerque, New Mexico",35.08424800000006,-106.64924099999996,USW00023050,"ALBUQUERQUE INTERNATIONAL AIRPORT, NM US",,
"Mobile, AL",T,100.0,"Mobile, Alabama",30.68894300000005,-88.04482199999995,USW00013894,"MOBILE REGIONAL AIRPORT, AL US",,
"Birmingham, AL",T,100.0,"Birmingham, Alabama",33.52285870000003,-86.80770519999999,USW00013876,"BIRMINGHAM AIRPORT, AL US",,
"Eagle, CO",T,100.0,"Eagle, Colorado",39.654251000000045,-106.82359699999995,USW00093009,"LEADVILLE LAKE CO AIRPORT, CO US",,
"Alexandria, LA",T,100.0,"Alexandria, Louisiana",31.29310010000006,-92.46328369999998,USW00013935,"ALEXANDRIA ESLER FIELD, LA US",,
"Cleveland, OH",T,100.0,"Cleveland, Ohio",41.50514140000007,-81.69145749999996,USW00014895,"AKRON CANTON AIRPORT, OH US",,
"Burlington, VT",T,100.0,"Burlington, Vermont",44.47599180000003,-73.21099539999994,USW00014742,"BURLINGTON INTERNATIONAL AIRPORT, VT US",,
"Fort Myers, FL",T,100.0,"Fort Myers, Florida",26.614149000000054,-81.82576899999998,USW00012835,"FORT MYERS PAGE FIELD AIRPORT, FL US",,
"El Paso, TX",T,100.0,"El Paso, Texas",31.760106200000052,-106.49229179999998,USW00023044,"EL PASO INTERNATIONAL AIRPORT, TX US",,
"Saipan, TT",T,89.1,Saipan,15.199271575000068,145.77737430900004,CQC00914855,"SAIPAN INTERNATIONAL AIRPORT, MP CQ",,
"Brownsville, TX",T,100.0,"Brownsville, Texas",25.903046000000074,-97.49888399999998,USW00012919,"BROWNSVILLE S PADRE ISLAND INTERNATIONAL AIRPORT, TX US",,
"Fairbanks, AK",T,100.0,"Fairbanks, Alaska",64.83666100000005,-147.73889099999997,USW00026411,"FAIRBANKS INTERNATIONAL AIRPORT, AK US",,
"Honolulu, HI",T,100.0,"Honolulu, Hawaii",21.309920000000034,-157.85815799999997,USW00022521,"HONOLULU INTERNATIONAL AIRPORT, HI US",,
"Kansas City, MO",T,100.0,"Kansas City, Missouri",39.099792000000036,-94.57855899999998,USW00003947,"KANSAS CITY INTERNATIONAL AIRPORT, MO US",,
"Mission/McAllen/Edinburg, TX",M,81.02,"Mission St, Edinburg, Texas, 78542",26.352222737000034,-98.12439338999997,USW00012919,"BROWNSVILLE S PADRE ISLAND INTERNATIONAL AIRPORT, TX US",,
"Marietta, GA",T,100.0,"Marietta, Georgia",33.95230400000003,-84.54905099999996,USW00013874,"ATLANTA HARTSFIELD JACKSON INTERNATIONAL AIRPORT, GA US",,
"Hyannis, MA",T,100.0,"Hyannis, Barnstable Town, Massachusetts",41.653477000000066,-70.28236999999996,USW00014739,"BOSTON LOGAN INTERNATIONAL AIRPORT, MA US",,
"Seattle, WA",T,100.0,"Seattle, Washington",47.603229000000056,-122.33027999999996,USW00024233,"SEATTLE TACOMA AIRPORT, WA US",,
"Sugar Land, TX",T,100.0,"Sugar Land, Texas",29.597075000000075,-95.62097099999994,USW00012918,"HOUSTON WILLIAM P HOBBY AIRPORT, TX US",,
"Marathon, FL",T,100.0,"Marathon, Florida",24.711130000000026,-81.09471999999994,USW00012836,"KEY WEST INTERNATIONAL AIRPORT, FL US",,
"Boise, ID",T,100.0,"Boise, Idaho",43.61579100000006,-116.20157899999998,USW00024131,"BOISE AIR TERMINAL, ID US",,
"Jackson, WY",T,100.0,"Jackson, Wyoming",43.47962000000007,-110.76235179999998,USC00100470,"ASHTON 1 N, ID US",,
"Memphis, TN",T,100.0,"Memphis, Tennessee",35.143378100000064,-90.05213559999999,USW00013893,"MEMPHIS INTERNATIONAL AIRPORT, TN US",,
"Huntsville, AL",T,100.0,"Huntsville, Alabama",34.72954020000003,-86.58530439999998,USW00003856,"HUNTSVILLE INTNL AIRPORT, AL US",,
"Louisville, KY",T,100.0,"Louisville, Kentucky",38.25607800000006,-85.75156899999996,USW00093821,"LOUISVILLE INTERNATIONAL AIRPORT, KY US",,
"Norfolk, VA",T,100.0,"Norfolk, Virginia",36.846159200000045,-76.28589369999997,USW00013737,"NORFOLK INTERNATIONAL AIRPORT, VA US",,
"Portland, OR",T,100.0,"Portland, Oregon",45.51601800000003,-122.68142499999999,USW00024232,"SALEM AIRPORT MCNARY FIELD, OR US",,
"Milwaukee, WI",T,100.0,"Milwaukee, Wisconsin",43.04107200000004,-87.90942099999995,USW00014839,"MILWAUKEE MITCHELL AIRPORT, WI US",,
"Madison, WI",T,100.0,"Madison, Wisconsin",43.07392600000003,-89.38524399999994,USW00014837,"MADISON DANE CO REGIONAL AIRPORT, WI US",,
"Salt Lake City, UT",M,100.0,"Salt Lake City, Utah",40.758478000000025,-111.88814199999996,USW00024127,"SALT LAKE CITY INTERNATIONAL AIRPORT, UT US",,
"Marana, AZ",T,100.0,"Marana, Arizona",32.45338400000003,-111.21217799999994,USW00023160,"TUCSON INTERNATIONAL AIRPORT, AZ US",,
"Harrisburg, PA",T,100.0,"Harrisburg, Pennsylvania",40.25959330000006,-76.88187289999996,USW00014711,"MIDDLETOWN HARRISBURG INTERNATIONAL AIRPORT, PA US",,
"Shreveport, LA",T,100.0,"Shreveport, Louisiana",32.51425000000006,-93.74777149999994,USW00013957,"SHREVEPORT AIRPORT, LA US",,
"Portland, ME",T,100.0,"Portland, Maine",43.65921800000007,-70.25651899999997,USW00014764,"PORTLAND JETPORT, ME US",,
"Waco, TX",T,100.0,"Waco, Texas",31.556825100000026,-97.13002189999997,USW00013959,"WACO REGIONAL AIRPORT, TX US",,
"Atlantic City, NJ",T,100.0,"Atlantic City, New Jersey",39.36061100000006,-74.43187529999994,USW00093730,"ATLANTIC CITY INTERNATIONAL AIRPORT, NJ US",,
"Augusta, GA",T,100.0,"Augusta, Georgia",33.47249400000004,-81.96439699999996,USW00003820,"AUGUSTA BUSH FIELD AIRPORT, GA US",,
"Buffalo, NY",T,100.0,"Buffalo, New York",42.887691000000075,-78.87937399999998,USW00014733,"BUFFALO NIAGARA INTERNATIONAL AIRPOR, NY US",,
"Jackson/Vicksburg, MS",T,98.21,"Jackson St, Vicksburg, Mississippi, 39183",32.35186293300006,-90.86304095899999,USW00013927,"JACKSON HAWKINS FIELD, MS US",,
"Santa Rosa, CA",T,100.0,"Santa Rosa, California",38.43969800000008,-122.71564199999995,USW00023213,"SANTA ROSA SONOMA CO AIRPORT, CA US",,
"Waterbury, CT",T,100.0,"Waterbury, Connecticut",41.55426090000003,-73.04306919999993,USW00014740,"HARTFORD BRADLEY INTERNATIONAL AIRPORT, CT US",,
"Thermal, CA",T,100.0,"Thermal, California",33.640573000000074,-116.13949299999996,USW00003104,"DESERT RESORTS REGIONAL AIRPORT, CA US",,
"Wilmington, NC",T,100.0,"Wilmington, North Carolina",34.23670000000004,-77.94619699999998,USW00013748,"WILMINGTON INTERNATIONAL AIRPORT, NC US",,
"Lincoln, NE",T,100.0,"Lincoln, Nebraska",40.81359900000007,-96.70260999999994,USW00014939,"LINCOLN AIRPORT, NE US",,
"Santa Ana, CA",T,100.0,"Santa Ana, California",33.749738000000036,-117.86978099999999,USW00023174,"LOS ANGELES INTERNATIONAL AIRPORT, CA US",,
"Tucson, AZ",T,100.0,"Tucson, Arizona",32.22187800000006,-110.97122499999995,USW00023160,"TUCSON INTERNATIONAL AIRPORT, AZ US",,
"Morristown, NJ",T,100.0,"Morristown, New Jersey",40.796640000000025,-74.48159499999997,USW00094728,"NY CITY CENTRAL PARK, NY US",,
"Scottsbluff, NE",T,100.0,"Scottsbluff, Nebraska",41.86759500000005,-103.66417499999994,USW00024028,"SCOTTSBLUFF W B HEILIG FIELD AIRPORT, NE US",,
"Broomfield, CO",T,100.0,"Broomfield, Colorado",39.92398500000007,-105.08166099999994,USW00003017,"DENVER INTERNATIONAL AIRPORT, CO US",,
"Baton Rouge, LA",T,100.0,"Baton Rouge, Louisiana",30.44331900000003,-91.18748799999997,USW00013970,"BATON ROUGE METRO AIRPORT, LA US",,
"Charleston, SC",T,100.0,"Charleston, South Carolina",32.776470000000074,-79.93102699999997,USW00013880,"CHARLESTON INTL. AIRPORT, SC US",,
"Des Moines, IA",T,100.0,"Des Moines, Iowa",41.58882200000005,-93.62030899999996,USW00014933,"DES MOINES INTERNATIONAL AIRPORT, IA US",,
"Corpus Christi, TX",T,100.0,"Corpus Christi, Texas",27.79641600000008,-97.40413099999995,USW00012924,"CORPUS CHRISTI INTERNATIONAL AIRPORT, TX US",,
"Carlsbad, CA",T,100.0,"Carlsbad, California",33.16603680000003,-117.33792719999997,USW00023188,"SAN DIEGO INTERNATIONAL AIRPORT, CA US",,
"Kona, HI",T,100.0,"Kona, Hawaii",19.666670000000067,-155.83332999999996,USW00021510,"KAILUA KONA KE AHOLE AIRPORT, HI US",,
"Springfield, OH",T,100.0,"Springfield, Ohio",39.924581000000046,-83.81013699999994,USW00093815,"DAYTON INTERNATIONAL AIRPORT, OH US",,
"Key West, FL",T,100.0,"Key West, Florida",24.559751100000028,-81.78370319999993,USW00012836,"KEY WEST INTERNATIONAL AIRPORT, FL US",,
"Fresno, CA",T,100.0,"Fresno, California",36.73165400000005,-119.78585599999997,USW00093193,"FRESNO YOSEMITE INTERNATIONAL, CA US",,
"Sioux Falls, SD",T,100.0,"Sioux Falls, South Dakota",43.54731000000004,-96.73129699999998,USW00014944,"SIOUX FALLS FOSS FIELD, SD US",,
"Grand Junction, CO",T,100.0,"Grand Junction, Colorado",39.06537100000003,-108.56953199999998,USW00023066,"GRAND JUNCTION WALKER FIELD, CO US",,
"Grand Island, NE",T,100.0,"Grand Island, Nebraska",40.92002700000006,-98.35141199999998,USW00014935,"GRAND ISLAND CENTRAL NE REGIONAL AIRPORT, NE US",,
"Killeen, TX",T,100.0,"Killeen, Texas",31.117810000000077,-97.73112899999995,USW00013959,"WACO REGIONAL AIRPORT, TX US",,
"Greensboro/High Point, NC",T,98.21,"Greensboro Rd, High Point, North Carolina, 27260",35.98715962400007,-79.96852170799997,USW00013723,"GREENSBORO PIEDMONT TRIAD INTERNATIONAL AIRPORT, NC US",,
"Hayden, CO",T,100.0,"Hayden, Colorado",40.49395030000005,-107.26198629999999,USW00094050,"MEEKER AIRPORT, CO US",,
"Nantucket, MA",T,100.0,"Nantucket, Massachusetts",41.28320800000006,-70.09922999999998,USW00014756,"NANTUCKET MEMORIAL AIRPORT, MA US",,
"Midland/Odessa, TX",M,97.74,"Odessa, Texas",31.849462000000074,-102.37467699999996,USW00023023,"MIDLAND INTERNATIONAL AIRPORT, TX US",,
"Longview, TX",T,100.0,"Longview, Texas",32.494556000000046,-94.74233599999997,USW00003901,"LONGVIEW E TX REGIONAL AIRPORT, TX US",,
"Rogers, AR",T,100.0,"Rogers, Arkansas",36.33440100000007,-94.12576399999995,USW00093993,"FAYETTEVILLE DRAKE FIELD, AR US",,
"Tulsa, OK",T,100.0,"Tulsa, Oklahoma",36.15532700000006,-95.99208299999998,USW00013968,"TULSA INTERNATIONAL AIRPORT, OK US",,
"Texarkana, AR",T,100.0,"Texarkana, Arkansas",33.43033600000007,-94.03893699999998,USW00013977,"TEXARKANA WEBB FIELD, AR US",,
"Wichita Falls, TX",T,100.0,"Wichita Falls, Texas",33.90976000000006,-98.50085399999995,USW00013966,"WICHITA FALLS MUNICIPAL AIRPORT, TX US",,
"Pago Pago, TT",T,91.08,"Pago Pago, Ma'oputasi, Eastern, American Samoa",-14.273280399999976,-170.70296999999997,AQW00061705,"PAGO PAGO WEATHER SERVICE OFFICE AIRPORT, AS AQ",,
"Abilene, TX",T,100.0,"Abilene, Texas",32.453571200000056,-99.73264029999996,USW00013962,"ABILENE REGIONAL AIRPORT, TX US",,
"Minot, ND",T,100.0,"Minot, North Dakota",48.23552250000006,-101.29596179999999,USW00024013,"MINOT INTERNATIONAL AIRPORT, ND US",,
"Casper, WY",T,100.0,"Casper, Wyoming",42.85008700000003,-106.32520299999999,USW00024089,"CASPER NATRONA CO AIRPORT, WY US",,
"Benton Harbor/St. Joseph, MI",M,90.82,Benton Harbor-st. Joseph Ymca,42.051315000000045,-86.45446799999996,USW00014848,"SOUTH BEND AIRPORT, IN US",,
"Monterey, CA",T,100.0,"Monterey, California",36.598341600000026,-121.89643049999995,USW00023233,"SALINAS AIRPORT, CA US",,
"Kahului, HI",T,100.0,"Kahului, Hawaii",20.888033500000063,-156.46785009999996,USW00022516,"KAHULUI AIRPORT, HI US",,
"Lexington, KY",T,100.0,"Lexington, Kentucky",38.04635600000006,-84.49702099999996,USW00093820,"LEXINGTON BLUEGRASS AIRPORT, KY US",,
"Oklahoma City, OK",T,100.0,"Oklahoma City, Oklahoma",35.46849400000008,-97.52126399999997,USW00013967,"OKLAHOMA CITY WILL ROGERS WORLD AIRPORT, OK US",,
"Pontiac, MI",T,100.0,"Pontiac, Michigan",42.63878200000005,-83.29269599999998,USW00014822,"DETROIT CITY AIRPORT, MI US",,
"Richmond, VA",T,100.0,"Richmond, Virginia",37.54075900000004,-77.43393199999997,USW00013740,"RICHMOND INTERNATIONAL AIRPORT, VA US",,
"Santa Barbara, CA",T,100.0,"Santa Barbara, California",34.420867000000044,-119.69834199999997,USW00023190,"SANTA BARBARA MUNICIPAL AIRPORT, CA US",,
"Trenton, NJ",T,100.0,"Trenton, New Jersey",40.22057240000004,-74.75970869999998,USW00013739,"PHILADELPHIA INTERNATIONAL AIRPORT, PA US",,
"Sanford, FL",T,100.0,"Sanford, Florida",28.800789400000042,-81.27304339999995,USW00012834,"DAYTONA BEACH INTERNATIONAL AIRPORT, FL US",,
"Ceiba, PR",T,100.0,Ceiba,18.268387997000048,-65.55923734399994,RQW00011641,"SAN JUAN L M MARIN INTERNATIONAL AIRPORT, PR US",,
"Grand Rapids, MI",T,100.0,"Grand Rapids, Michigan",42.96546170000005,-85.67017139999996,USW00094860,"GRAND RAPIDS GERALD R FORD INTERNATIONAL AIRPORT, MI US",,
"New Haven, CT",T,100.0,"New Haven, Connecticut",41.30825170000003,-72.92416049999997,USW00014740,"HARTFORD BRADLEY INTERNATIONAL AIRPORT, CT US",,
"Jacksonville, FL",M,100.0,"Jacksonville, Florida",30.325968000000046,-81.65675999999996,USW00013889,"JACKSONVILLE INTERNATIONAL AIRPORT, FL US",,
"Charlotte Amalie, VI",T,100.0,"Charlotte Amalie, Saint Thomas Island",18.341900000000066,-64.93069999999994,RQW00011630,"ROOSEVELT ROADS, PR US",,
"Knoxville, TN",T,100.0,"Knoxville, Tennessee",35.962644400000045,-83.91672389999997,USW00013891,"KNOXVILLE AIRPORT, TN US",,
"Vieques, PR",T,100.0,Vieques,18.12526495900005,-65.43230194499995,RQW00011641,"SAN JUAN L M MARIN INTERNATIONAL AIRPORT, PR US",,
"Jackson, TN",T,100.0,"Jackson, Tennessee",35.614344000000074,-88.81937999999997,USW00003811,"JACKSON MCKELLAR SIPES AIRPORT, TN US",,
"Syracuse, NY",M,100.0,"Syracuse, New York",43.04794500000003,-76.14744799999994,USW00014771,"SYRACUSE HANCOCK INTERNATIONAL AIRPORT, NY US",,
"Minneapolis/St. Paul, MN",M,100.0,Minneapolis,44.88870000000003,-93.20239999999995,USW00014922,"MINNEAPOLIS ST. PAUL INTERNATIONAL AIRPORT, MN US",,
"Lakeland, FL",T,100.0,"Lakeland, Florida",28.044154500000047,-81.94896599999998,USW00012842,"TAMPA INTERNATIONAL AIRPORT, FL US",,
"Stuart, FL",T,100.0,"Stuart, Florida",27.19957000000005,-80.25487799999996,USW00012844,"WEST PALM BEACH INTERNATIONAL AIRPORT, FL US",,
"Rochester, NY",T,100.0,"Rochester, New York",43.15570800000006,-77.61254699999995,USW00014768,"FREDERICK DOUGLASS GREATER ROCHESTER INTERNATIONAL AIRPORT, NY US",,
"Rochester, MN",T,100.0,"Rochester, Minnesota",44.01933100000008,-92.45886699999994,USW00014925,"ROCHESTER INTERNATIONAL AIRPORT, MN US",,
"Aguadilla, PR",T,100.0,Aguadilla,18.480277965000028,-67.14472727699996,RQW00011603,"BORINQUEN AIRPORT, PR US",,
"Myrtle Beach, SC",T,100.0,"Myrtle Beach, South Carolina",33.687850000000026,-78.88385199999993,USW00093718,"NORTH MYRTLE BEACH, SC US",,
"Vero Beach, FL",T,100.0,"Vero Beach, Florida",27.638883000000078,-80.38907999999998,USW00012843,"VERO BEACH INTERNATIONAL AIRPORT, FL US",,
"Fort Pierce, FL",T,100.0,"Fort Pierce, Florida",27.447119000000043,-80.33723699999996,USW00012843,"VERO BEACH INTERNATIONAL AIRPORT, FL US",,
"Lebanon-Hanover, NH",M,98.21,"Lebanon St, Hanover, New Hampshire, 03755",43.69150229400003,-72.26944493699995,USW00094705,"MONTPELIER EDWARD F. KNAPP STATE AIRPORT, VT US",,
"Islip, NY",T,100.0,"Islip, New York",40.729025000000036,-73.21057799999994,USW00094702,"IGOR I SIKORSKY MEMORIAL AIRPORT, CT US",,
"Rifle, CO",T,100.0,"Rifle, Colorado",39.53348500000004,-107.78330199999999,USW00003016,"RIFLE GARFIELD CO AIRPORT, CO US",,
"Cherry Point, NC",M,100.0,"Cherry Point, North Carolina",34.91682700000007,-76.87327319999997,USW00093719,"NEW BERN COASTAL CAROLINA REGIONAL AIRPORT, NC US",,
"Titusville, FL",T,100.0,"Titusville, Florida",28.609188000000074,-80.80759399999994,USW00012834,"DAYTONA BEACH INTERNATIONAL AIRPORT, FL US",,
"Elkhart, IN",T,100.0,"Elkhart, Indiana",41.68738100000007,-85.97353599999997,USW00014848,"SOUTH BEND AIRPORT, IN US",,
"Montgomery, AL",T,100.0,"Montgomery, Alabama",32.37654200000003,-86.29966079999997,USW00013895,"MONTGOMERY AIRPORT, AL US",,
"Kennesaw, GA",T,100.0,"Kennesaw, Georgia",34.02535400000005,-84.61882199999997,USW00013874,"ATLANTA HARTSFIELD JACKSON INTERNATIONAL AIRPORT, GA US",,
"Yuma, AZ",T,100.0,"Yuma, Arizona",32.72231300000004,-114.62087999999994,USW00003145,"YUMA MCAS, AZ US",,
"Del Rio, TX",T,100.0,"Del Rio, Texas",29.365786300000025,-100.89794419999998,USW00022010,"DEL RIO INTERNATIONAL AIRPORT, TX US",,
"Little Rock, AR",T,100.0,"Little Rock, Arkansas",34.74874500000004,-92.27510499999994,USW00013963,"LITTLE ROCK AIRPORT ADAMS FIELD, AR US",,
"Ontario, CA",M,100.0,"Ontario, California",34.06335210000003,-117.65239799999995,USW00023174,"LOS ANGELES INTERNATIONAL AIRPORT, CA US",,
"South Bend, IN",T,100.0,"South Bend, Indiana",41.675032000000044,-86.25196199999993,USW00014848,"SOUTH BEND AIRPORT, IN US",,
"Helena, MT",T,100.0,"Helena, Montana",46.59107080000007,-112.02039729999996,USW00024144,"HELENA AIRPORT ASOS, MT US",,
"La Crosse, WI",T,100.0,"La Crosse, Wisconsin",43.808767000000046,-91.25185999999997,USW00014920,"LA CROSSE REGIONAL AIRPORT, WI US",,
"College Station/Bryan, TX",T,97.43,"S Texas Ave, College Station, Texas, 77840",30.630171739000048,-96.33761518599994,USW00003904,"COLLEGE STATION EASTERWOOD FIELD, TX US",,
"Tallahassee, FL",T,100.0,"Tallahassee, Florida",30.44074100000006,-84.27832799999999,USW00093805,"TALLAHASSEE REGIONAL AIRPORT, FL US",,
"Lansing, MI",T,100.0,"Lansing, Michigan",42.733625000000075,-84.55392699999999,USW00014836,"LANSING CAPITAL CITY AIRPORT, MI US",,
"Montrose/Delta, CO",M,95.15,"Delta, Colorado",38.74168400000008,-108.07017499999995,USW00023066,"GRAND JUNCTION WALKER FIELD, CO US",,
"Park Rapids, MN",T,100.0,"Park Rapids, Minnesota",46.922120000000064,-95.06161499999996,USW00094967,"PARK RAPIDS MUNICIPAL AIRPORT, MN US",,
"Mountain View, CA",T,100.0,"Mountain View, California",37.39008000000007,-122.08139189999997,USW00023234,"SAN FRANCISCO INTERNATIONAL AIRPORT, CA US",,
"Victorville, CA",T,100.0,"Victorville, California",34.51209970000008,-117.32363189999995,USW00023161,"BARSTOW DAGGETT AIRPORT, CA US",,
"Palm Springs, CA",T,100.0,"Palm Springs, California",33.83030190000005,-116.54684329999998,USW00003104,"DESERT RESORTS REGIONAL AIRPORT, CA US",,
"Beverly, MA",T,100.0,"Beverly, Massachusetts",42.552163000000064,-70.88267899999994,USW00014745,"CONCORD MUNICIPAL AIRPORT, NH US",,
"Amarillo, TX",T,100.0,"Amarillo, Texas",35.20700900000003,-101.83201299999996,USW00023047,"AMARILLO AIRPORT, TX US",,
"Dayton, OH",T,100.0,"Dayton, Ohio",39.76098200000007,-84.19220299999995,USW00093814,"CINCINNATI NORTHERN KENTUCKY INTERNATIONAL AIRPORT, KY US",,
"San Angelo, TX",T,100.0,"San Angelo, Texas",31.463780000000042,-100.43730399999998,USW00023034,"SAN ANGELO MATHIS FIELD AIRPORT, TX US",,
"Toledo, OH",T,100.0,"Toledo, Ohio",41.65529800000007,-83.53571699999998,USW00094847,"DETROIT METRO AIRPORT, MI US",,
"Friday Harbor, WA",T,100.0,"Friday Harbor, Washington",48.53475350000008,-123.01610389999996,USW00024255,"WHIDBEY ISLAND NAS, WA US",,
"Kenmore, WA",T,100.0,"Kenmore, Washington",47.76619800000003,-122.25706399999996,USW00024233,"SEATTLE TACOMA AIRPORT, WA US",,
"Great Barrington, MA",T,100.0,"Great Barrington, Massachusetts",42.193809000000044,-73.36287799999997,USW00014740,"HARTFORD BRADLEY INTERNATIONAL AIRPORT, CT US",,
"Dover, DE",T,100.0,"Dover, Delaware",39.158827700000074,-75.52113859999997,USW00013739,"PHILADELPHIA INTERNATIONAL AIRPORT, PA US",,
"Whidbey Island, WA",T,100.0,Whidbey Island,48.00118000000003,-122.44674999999995,USW00024233,"SEATTLE TACOMA AIRPORT, WA US",,
"Fairfield, CA",T,100.0,"Fairfield, California",38.25148800000005,-122.04985099999999,USW00023232,"SACRAMENTO AIRPORT ASOS, CA US",,
"Mineral Wells, TX",T,100.0,"Mineral Wells, Texas",32.80920400000008,-98.11293799999999,USW00003969,"STEPHENVILLE 9 NNE, TX US",,
"Chandler, AZ",T,100.0,"Chandler, Arizona",33.30228500000004,-111.84010299999994,USW00023183,"PHOENIX AIRPORT, AZ US",,
"Spokane, WA",T,100.0,"Spokane, Washington",47.65899890000003,-117.42502239999999,USW00024157,"SPOKANE INTERNATIONAL AIRPORT, WA US",,
"Great Falls, MT",T,100.0,"Great Falls, Montana",47.50645300000008,-111.30601899999999,USW00024143,"GREAT FALLS AIRPORT, MT US",,
"Butte, MT",T,100.0,"Butte, Montana",46.01284000000004,-112.53558299999997,USW00024144,"HELENA AIRPORT ASOS, MT US",,
"Martha's Vineyard, MA",M,100.0,Martha's Vineyard,41.46277900000007,-70.61373599999996,USW00014753,"BLUE HILL LCD, MA US",,
"Riverside, CA",T,100.0,"Riverside, California",33.980534000000034,-117.37702499999995,USW00003154,"CAMP PENDLETON MCAS, CA US",,
"Greenville, TX",T,100.0,"Greenville, Texas",33.13908300000003,-96.10723699999994,USW00013960,"DALLAS FAA AIRPORT, TX US",,
"Niagara Falls, NY",M,100.0,Niagara Falls,43.08458754000003,-79.06948865099997,USW00014733,"BUFFALO NIAGARA INTERNATIONAL AIRPOR, NY US",,
"Taos, NM",T,100.0,"Taos, New Mexico",36.407245500000045,-105.57337839999997,USC00292700,"EAGLE NEST, NM US",,
"Christiansted, VI",T,100.0,"Christiansted, St. Croix",17.74633300000005,-64.70369999999997,VQW00011640,"CYRIL E. KING AIRPORT, VI US",,
"Everett, WA",T,100.0,"Everett, Washington",47.979130000000055,-122.19589299999996,USW00024233,"SEATTLE TACOMA AIRPORT, WA US",,
"San Bernardino, CA",T,100.0,"San Bernardino, California",34.10831710000008,-117.29409609999999,USW00023161,"BARSTOW DAGGETT AIRPORT, CA US",,
"St. Augustine, FL",M,100.0,"St. Augustine, Florida",29.89600400000006,-81.31670899999995,USW00013889,"JACKSONVILLE INTERNATIONAL AIRPORT, FL US",,
"Bay St. Louis, MS",T,100.0,"Bay St. Louis, Mississippi",30.316381800000045,-89.34786469999995,USW00012958,"NEW ORLEANS ALVIN CALLENDER FIELD, LA US",,
"Westfield, MA",T,100.0,"Westfield, Massachusetts",42.121185000000025,-72.74908199999999,USW00014740,"HARTFORD BRADLEY INTERNATIONAL AIRPORT, CT US",,
"Brunswick, GA",T,100.0,"Brunswick, Georgia",31.16899200000006,-81.50247999999993,USW00013889,"JACKSONVILLE INTERNATIONAL AIRPORT, FL US",,
"Grand Forks, ND",T,100.0,"Grand Forks, North Dakota",47.92570500000005,-97.03606799999994,USW00014916,"GRAND FORKS INTERNATIONAL AIRPORT, ND US",,
"Portland, TN",T,100.0,"Portland, Tennessee",36.58450400000004,-86.51805699999994,USW00013897,"NASHVILLE INTERNATIONAL AIRPORT, TN US",,
"Latrobe, PA",T,100.0,"Latrobe, Pennsylvania",40.318276000000026,-79.38108229999995,USW00013736,"MORGANTOWN MUNICIPAL AIRPORT, WV US",,
"Twin Falls, ID",T,100.0,"Twin Falls, Idaho",42.56318100000004,-114.46027799999996,USW00024133,"BURLEY MUNICIPAL AIRPORT, ID US",,
"Billings, MT",T,100.0,"Billings, Montana",45.78265000000005,-108.50457799999998,USW00024033,"BILLINGS INTERNATIONAL AIRPORT, MT US",,
"Crestview, FL",T,100.0,"Crestview, Florida",30.749649000000034,-86.56265059999998,USW00013899,"PENSACOLA REGIONAL AIRPORT, FL US",,
"Juneau, AK",T,100.0,"Juneau, Alaska",58.30103720000005,-134.42463769999995,USW00025309,"JUNEAU AIRPORT, AK US",,
"Omaha, NE",T,100.0,"Omaha, Nebraska",41.25865200000004,-95.93719499999997,USW00014942,"OMAHA EPPLEY AIRFIELD, NE US",,
"Napa, CA",T,100.0,"Napa, California",38.29724200000004,-122.28940499999999,USW00023234,"SAN FRANCISCO INTERNATIONAL AIRPORT, CA US",,
"Wichita, KS",T,100.0,"Wichita, Kansas",37.68602340000007,-97.33557099999996,USW00003928,"WICHITA DWIGHT D. EISENHOWER NATIONAL AIRPORT, KS US",,
"Gustavus, AK",T,100.0,"Gustavus, Alaska",58.41263320000007,-135.74602549999997,USW00025322,"GUSTAVUS, AK US",,
"Tokeen, AK",T,100.0,"Tokeen, Alaska",55.994440000000054,-133.46389,USW00025367,"KLAWOCK AIRPORT, AK US",,
"Panama City, FL",T,100.0,"Panama City, Florida",30.185210700000027,-85.73083279999997,USC00080211,"APALACHICOLA AIRPORT, FL US",,
"Coeur d'Alene, ID",T,100.0,"Coeur d'Alene, Idaho",47.67334200000005,-116.77381899999995,USW00094119,"DEER PARK AIRPORT, WA US",,
"Hilo, HI",T,100.0,"Hilo, Hawaii",19.725257700000043,-155.08908569999997,USW00021504,"HILO INTERNATIONAL AIRPORT 87, HI US",,
"Green Bay, WI",T,100.0,"Green Bay, Wisconsin",44.513288300000056,-88.01325619999994,USW00014898,"GREEN BAY A S INTERNATIONAL AIRPORT, WI US",,
"Long Beach, CA",T,100.0,"Long Beach, California",33.771712000000036,-118.181311,USW00023174,"LOS ANGELES INTERNATIONAL AIRPORT, CA US",,
"Topeka, KS",T,100.0,"Topeka, Kansas",39.05097600000005,-95.67043299999995,USW00013996,"TOPEKA ASOS, KS US",,
"Hopkinsville, KY",T,100.0,"Hopkinsville, Kentucky",36.865586000000064,-87.48890599999999,USW00003894,"CLARKSVILLE OUTLAW AIRPORT, TN US",,
"Lake Charles, LA",T,100.0,"Lake Charles, Louisiana",30.22928870000004,-93.21711069999998,USW00003937,"LAKE CHARLES REGIONAL AIRPORT, LA US",,
"Youngstown/Warren, OH",T,100.0,"Warren, Youngstown, Ohio",41.079956700000025,-80.66598449999998,USW00014852,"YOUNGSTOWN WARREN REGIONAL AIRPORT, OH US",,
"Pellston, MI",T,100.0,"Pellston, Michigan",45.554523000000074,-84.78228599999994,USW00014841,"PELLSTON REGIONAL AIRPORT, MI US",,
"Peoria, IL",T,100.0,"Peoria, Illinois",40.69459200000006,-89.59036199999997,USW00014842,"GENERAL WAYNE A. DOWNING INTERNATIONAL AIRPORT, IL US",,
"Missoula, MT",T,100.0,"Missoula, Montana",46.87212900000003,-113.99401699999999,USW00024153,"MISSOULA INTERNATIONAL AIRPORT, MT US",,
"Polson, MT",T,100.0,"Polson, Montana",47.693381000000045,-114.16338089999999,USC00244558,"KALISPELL GLACIER AIRPORT, MT US",,
"New London/Groton, CT",M,99.32,In New London,41.37450000000007,-72.07969999999995,USW00014740,"HARTFORD BRADLEY INTERNATIONAL AIRPORT, CT US",,
"Fort Drum, NY",T,100.0,"Fort Drum, New York",44.06532180000005,-75.76506689999997,USW00094790,"WATERTOWN INTERNATIONAL AIRPORT, NY US",,
"Goldsboro, NC",T,100.0,"Goldsboro, North Carolina",35.38663400000007,-77.99903199999994,USW00093727,"NEW RIVER MCAF, NC US",,
"Goodyear, AZ",T,100.0,"Goodyear, Arizona",33.44619800000004,-112.35826899999995,USW00023183,"PHOENIX AIRPORT, AZ US",,
"Ogden, UT",T,100.0,"Ogden, Utah",41.222786900000074,-111.97034419999994,USW00024127,"SALT LAKE CITY INTERNATIONAL AIRPORT, UT US",,
"Chicopee Falls, MA",T,100.0,"Chicopee Falls, Massachusetts",42.15203800000006,-72.57592199999993,USW00014740,"HARTFORD BRADLEY INTERNATIONAL AIRPORT, CT US",,
"Hollister, CA",T,100.0,"Hollister, California",36.852513000000044,-121.40206299999994,USW00023233,"SALINAS AIRPORT, CA US",,
"Terre Haute, IN",T,100.0,"Terre Haute, Indiana",39.466481800000054,-87.41257829999995,USC00128723,"TERRE HAUTE INDIANA STATE, IN US",,
"Midway Island, TT",T,93.34,"Midway Island, Virginia",38.50169900000003,-77.36794499999996,USW00093721,"BALTIMORE WASHINGTON INTERNATIONAL AIRPORT, MD US",,
"Moses Lake, WA",T,100.0,"Moses Lake, Washington",47.13164660000007,-119.27776129999995,USW00024141,"EPHRATA AIRPORT, WA US",,
"Kaneohe, HI",T,100.0,"Kaneohe, Hawaii",21.418195000000026,-157.80199699999997,USW00022521,"HONOLULU INTERNATIONAL AIRPORT, HI US",,
"Knob Noster, MO",T,100.0,"Knob Noster, Missouri",38.76502300000004,-93.55653399999994,USW00013991,"MARSHALL, MO US",,
"Tacoma, WA",T,100.0,"Tacoma, Washington",47.25308000000007,-122.44152999999994,USW00024233,"SEATTLE TACOMA AIRPORT, WA US",,
"Traverse City, MI",T,100.0,"Traverse City, Michigan",44.75909200000007,-85.60546899999997,USW00014850,"TRAVERSE CITY CHERRY CAPITAL AIRPORT, MI US",,
"Lancaster, PA",T,100.0,"Lancaster, Pennsylvania",40.039401000000055,-76.30707799999993,USW00014711,"MIDDLETOWN HARRISBURG INTERNATIONAL AIRPORT, PA US",,
"Kanab, UT",T,100.0,"Kanab, Utah",37.05582840000005,-112.52632849999998,USW00093129,"CEDAR CITY AIRPORT, UT US",,
"Burbank, CA",T,100.0,"Burbank, California",34.182052000000056,-118.30747599999995,USW00023174,"LOS ANGELES INTERNATIONAL AIRPORT, CA US",,
"Kalispell, MT",T,100.0,"Kalispell, Montana",48.19775070000003,-114.31345969999995,USC00244558,"KALISPELL GLACIER AIRPORT, MT US",,
"Ketchikan, AK",T,100.0,"Ketchikan, Alaska",55.34194240000005,-131.64276009999998,USW00025325,"KETCHIKAN AIRPORT, AK US",,
"Scranton/Wilkes-Barre, PA",T,92.8,Wilkes-Barre Scranton International Airport,41.33595800000006,-75.72853299999997,USW00014777,"WILKES BARRE SCRANTON INTERNATIONAL AIRPORT, PA US",,
"Plattsburgh, NY",T,100.0,"Plattsburgh, New York",44.69966800000003,-73.45180699999997,USW00014742,"BURLINGTON INTERNATIONAL AIRPORT, VT US",,
"Bellingham, WA",T,100.0,"Bellingham, Washington",48.75190710000004,-122.47871669999995,USW00024255,"WHIDBEY ISLAND NAS, WA US",,
"Fort Dix, NJ",T,100.0,"Fort Dix, New Jersey",40.01513700000004,-74.62894999999997,USW00093730,"ATLANTIC CITY INTERNATIONAL AIRPORT, NJ US",,
"Bristol/Johnson City/Kingsport, TN",M,86.8,"Bristol Hwy, Kingsport, Tennessee, 37663",36.46050108600008,-82.43342333299995,USW00013877,"BRISTOL AIRPORT, TN US",,
"Waukegan, IL",T,100.0,"Waukegan, Illinois",42.35958400000004,-87.83389999999997,USW00014839,"MILWAUKEE MITCHELL AIRPORT, WI US",,
"North Kingstown, RI",T,100.0,"North Kingstown, Rhode Island",41.56037800000007,-71.44504099999995,USW00014765,"RHODE ISLAND T.F. GREEN INTERNATIONAL AIRPORT, RI US",,
"Cold Bay, AK",M,100.0,"Cold Bay, Alaska",55.20404910000008,-162.70402989999997,USW00025624,"COLD BAY AIRPORT, AK US",,
"Lihue, HI",T,100.0,"Lihue, Hawaii",21.96758090000003,-159.35796389999996,USW00022536,"LIHUE WEATHER SERVICE OFFICE AIRPORT 1020.1, HI US",,
"Sebring, FL",T,100.0,"Sebring, Florida",27.49797700000005,-81.44482899999997,USC00085895,"MOORE HAVEN LOCK 1, FL US",,
"Tullahoma, TN",T,100.0,"Tullahoma, Tennessee",35.36973100000006,-86.21862799999997,USW00003856,"HUNTSVILLE INTNL AIRPORT, AL US",,
"Sun Valley/Hailey/Ketchum, ID",T,86.31,"Sun Valley Rd, Ketchum, Idaho, 83340",43.679503742000065,-114.36584128699997,USC00104268,"HILL CITY 1 W, ID US",,
"Yakima, WA",T,100.0,"Yakima, Washington",46.60223400000007,-120.50609299999996,USW00024243,"YAKIMA AIRPORT, WA US",,
"Pueblo, CO",T,100.0,"Pueblo, Colorado",38.26542500000005,-104.61041499999999,USW00093058,"PUEBLO MEMORIAL AIRPORT, CO US",,
"Ocala, FL",T,100.0,"Ocala, Florida",29.189311000000032,-82.13778899999994,USW00012816,"GAINESVILLE REGIONAL AIRPORT, FL US",,
"Leesburg, FL",T,100.0,"Leesburg, Florida",28.811191000000065,-81.88181599999996,USW00012815,"ORLANDO INTERNATIONAL AIRPORT, FL US",,
"Worcester, MA",T,100.0,"Worcester, Massachusetts",42.26211760000007,-71.80223859999995,USW00014765,"RHODE ISLAND T.F. GREEN INTERNATIONAL AIRPORT, RI US",,
"Newport News/Williamsburg, VA",T,88.78,"Newport Ave, Williamsburg, Virginia, 23185",37.26700211800005,-76.70502548699994,USW00013737,"NORFOLK INTERNATIONAL AIRPORT, VA US",,
"Fort Dodge, IA",T,100.0,"Fort Dodge, Iowa",42.50116900000006,-94.16938799999997,USC00130200,"AMES 8 WSW, IA US",,
"Charleston/Dunbar, WV",M,90.99,"West Virginia Ave, Dunbar, West Virginia, 25064",38.36016779700003,-81.72489983099996,USW00003872,"BECKLEY RALEIGH CO AIRPORT, WV US",,
"Hermiston, OR",T,100.0,"Hermiston, Oregon",45.84144750000007,-119.29020819999994,USW00024155,"PENDLETON E OR REGIONAL AIRPORT, OR US",,
"Cedar Rapids/Iowa City, IA",M,97.63,Cedar Rapids Iowa,42.02511000000004,-91.61821999999995,USW00014990,"CEDAR RAPIDS MUNICIPAL AIRPORT, IA US",,
"Gary, IN",T,100.0,"Gary, Indiana",41.60196700000006,-87.34968399999997,USW00094846,"CHICAGO OHARE INTERNATIONAL AIRPORT, IL US",,
"Provo, UT",T,100.0,"Provo, Utah",40.23512200000005,-111.66218999999995,USW00024127,"SALT LAKE CITY INTERNATIONAL AIRPORT, UT US",,
"Holy Cross, AK",T,100.0,"Holy Cross, Alaska",62.19815600000004,-159.77168699999996,USW00026516,"ANIAK AIRPORT, AK US",,
"Santa Fe, NM",T,100.0,"Santa Fe, New Mexico",35.69213300000007,-105.93959299999995,USW00023050,"ALBUQUERQUE INTERNATIONAL AIRPORT, NM US",,
"Springfield, MO",T,100.0,"Springfield, Missouri",37.215521000000024,-93.29236099999997,USW00013995,"SPRINGFIELD WEATHER SERVICE OFFICE AIRPORT, MO US",,
"Lawton/Fort Sill, OK",M,92.82,"Lawson Rd, Fort Sill, Oklahoma, 73503",34.67095236100005,-98.40800174199995,USW00013966,"WICHITA FALLS MUNICIPAL AIRPORT, TX US",,
"Columbia, MO",T,100.0,"Columbia, Missouri",38.95155100000005,-92.32859399999995,USW00003945,"COLUMBIA REGIONAL AIRPORT, MO US",,
"Waterloo, IA",T,100.0,"Waterloo, Iowa",42.49346900000006,-92.34363999999994,USW00094910,"WATERLOO MUNICIPAL AIRPORT, IA US",,
"Charlottesville, VA",T,100.0,"Charlottesville, Virginia",38.03106050000008,-78.47427939999994,USW00013733,"LYNCHBURG REGIONAL AIRPORT, VA US",,
"Clarksburg/Fairmont, WV",M,87.9,Clarksburg Center of Fairmont State College,39.279993200000035,-80.34375339999997,USW00013729,"ELKINS RANDOLPH CO AIRPORT, WV US",,
"Conroe, TX",T,100.0,"Conroe, Texas",30.313044000000048,-95.45814099999996,USW00012918,"HOUSTON WILLIAM P HOBBY AIRPORT, TX US",,
"Bloomington, IN",T,100.0,"Bloomington, Indiana",39.16658700000005,-86.53489299999995,USW00093819,"INDIANAPOLIS INTERNATIONAL AIRPORT, IN US",,
"Lynchburg, VA",T,100.0,"Lynchburg, Virginia",37.414345000000026,-79.14320399999997,USW00013733,"LYNCHBURG REGIONAL AIRPORT, VA US",,
"Gulfport/Biloxi, MS",M,100.0,Gulfport-Biloxi,30.418743000000063,-89.07097599999997,USW00053858,"PASCAGOULA LOTT INTERNATIONAL AIRPORT, MS US",,
"Ithaca/Cortland, NY",T,85.0,"Cortland, New York",42.60121300000003,-76.18048299999998,USW00004725,"BINGHAMTON GREATER AP, NY US",,
"Ogdensburg, NY",T,100.0,"Ogdensburg, New York",44.69759200000004,-75.49279699999994,USW00094725,"MASSENA INTERNATIONAL AIRPORT, NY US",,
"Champaign/Urbana, IL",M,100.0,Champaign County,40.11305990000005,-88.18427549999996,USC00118740,"CHAMPAIGN 3 S, IL US",,
"Manassas, VA",T,100.0,"Manassas, Virginia",38.75077100000004,-77.47508899999997,USW00013743,"WASHINGTON REAGAN NATIONAL AIRPORT, VA US",,
"Lompoc, CA",T,100.0,"Lompoc, California",34.65338500000007,-120.45772699999998,USW00023273,"SANTA MARIA PUBLIC AIRPORT, CA US",,
"Rockland, ME",T,100.0,"Rockland, Maine",44.102029800000025,-69.11065939999997,USW00014605,"AUGUSTA STATE AIRPORT, ME US",,
"Saranac Lake/Lake Placid, NY",T,97.01,"Saranac Ave, Lake Placid, New York, 12946",44.293656482000074,-73.99250405099997,USW00004742,"PLATTSBURGH INTERNATIONAL AIRPORT, NY US",,
"Kapolei, HI",T,100.0,"Kapolei, Hawaii",21.338193000000047,-158.07444999999998,USW00022521,"HONOLULU INTERNATIONAL AIRPORT, HI US",,
"Port Hueneme, CA",T,100.0,"Port Hueneme, California",34.14906000000008,-119.19695199999995,USW00023187,"SANDBERG, CA US",,
"Page, AZ",T,100.0,"Page, Arizona",36.91094300000003,-111.45617399999998,USC00021001,"BRIGHT ANGEL RANGER STATION, AZ US",,
"Leesburg, VA",T,100.0,"Leesburg, Virginia",39.10800000000006,-77.55063499999994,USW00013743,"WASHINGTON REAGAN NATIONAL AIRPORT, VA US",,
"Watertown, NY",T,100.0,"Watertown, New York",43.97237700000005,-75.91125399999999,USW00094790,"WATERTOWN INTERNATIONAL AIRPORT, NY US",,
"Ponce, PR",T,100.0,Ponce,18.01262820000005,-66.62603809999996,RQW00011641,"SAN JUAN L M MARIN INTERNATIONAL AIRPORT, PR US",,
"Douglas, AZ",T,100.0,"Douglas, Arizona",31.344475000000045,-109.54553199999998,USW00093026,"DOUGLAS BISBEE INTERNATIONAL AIRPORT, AZ US",,
"Moline, IL",T,100.0,"Moline, Illinois",41.492225000000076,-90.48927099999997,USW00014931,"BURLINGTON MUNICIPAL AIRPORT, IA US",,
"Lafayette, LA",T,100.0,"Lafayette, Louisiana",30.22126000000003,-92.01877299999995,USW00013976,"LAFAYETTE REGIONAL AIRPORT, LA US",,
"East Tawas, MI",T,100.0,"East Tawas, Michigan",44.27960500000006,-83.48904999999996,USC00207820,"STANDISH 4 NE, MI US",,
"Hickory, NC",T,100.0,"Hickory, North Carolina",35.729640000000074,-81.33346399999994,USW00013881,"CHARLOTTE DOUGLAS AIRPORT, NC US",,
"Telluride, CO",M,100.0,Telluride,37.936551000000065,-107.84634299999999,USW00093013,"MONTROSE REGIONAL AIRPORT, CO US",,
"North Bend/Coos Bay, OR",M,87.12,North Bend Oyster,43.337649000000056,-124.31939299999999,USW00024284,"NORTH BEND SOUTHWEST OREGON REGIONAL AIRPORT, OR US",,
"Molly Creek, AK",M,100.0,Molly Creek,64.19583000000006,-143.46666999999997,USC00508020,"ROBERTSON RIVER, AK US",,
"Bullhead City, AZ",T,100.0,"Bullhead City, Arizona",35.10742220000003,-114.59803659999994,USW00023179,"NEEDLES AIRPORT, CA US",,
"Miami, OK",T,100.0,"Miami, Oklahoma",36.876224000000036,-94.87754199999995,USW00013987,"JOPLIN REGIONAL AIRPORT, MO US",,
"Erie, PA",T,100.0,"Erie, Pennsylvania",42.12795100000005,-80.08257999999995,USW00014860,"ERIE INTERNATIONAL AIRPORT, PA US",,
"Winston-Salem, NC",T,100.0,"Winston-Salem, North Carolina",36.09626100000003,-80.24373499999996,USW00013723,"GREENSBORO PIEDMONT TRIAD INTERNATIONAL AIRPORT, NC US",,
"Sheboygan, WI",T,100.0,"Sheboygan, Wisconsin",43.75088000000005,-87.71290699999997,USW00014898,"GREEN BAY A S INTERNATIONAL AIRPORT, WI US",,
"Saginaw/Bay City/Midland, MI",M,86.5,Just Between Friends of Midland Bay City Saginaw,43.66097800000006,-84.25011799999999,USW00014826,"FLINT FCWOS, MI US",,
"Bridgeport, CT",T,100.0,"Bridgeport, Connecticut",41.17919500000005,-73.18947599999996,USW00094702,"IGOR I SIKORSKY MEMORIAL AIRPORT, CT US",,
"Massena, NY",T,100.0,"Massena, New York",44.92802100000006,-74.89182399999999,USW00094725,"MASSENA INTERNATIONAL AIRPORT, NY US",,
"Appleton, WI",T,100.0,"Appleton, Wisconsin",44.26180400000004,-88.40724999999998,USW00014898,"GREEN BAY A S INTERNATIONAL AIRPORT, WI US",,
"Columbus, GA",T,100.0,"Columbus, Georgia",32.46668200000005,-84.99040499999995,USW00093842,"COLUMBUS METROPOLITAN AIRPORT, GA US",,
"Belmar/Farmingdale, NJ",M,98.21,"Belmar Blvd, Farmingdale, New Jersey, 07727",40.19814639000003,-74.14391922899995,USW00094728,"NY CITY CENTRAL PARK, NY US",,
"North Platte, NE",T,100.0,"North Platte, Nebraska",41.13250700000003,-100.76396899999997,USW00024023,"NORTH PLATTE REGIONAL AIRPORT, NE US",,
"St. George, UT",T,100.0,"St. George, Utah",37.10830110000006,-113.58323779999995,USW00093129,"CEDAR CITY AIRPORT, UT US",,
"Cheyenne, WY",T,100.0,"Cheyenne, Wyoming",41.14024000000006,-104.81880199999995,USW00024018,"CHEYENNE WSFO AIRPORT, WY US",,
"Burlington/Mount Vernon, WA",M,88.66,Mini Storage Mt. Vernon Burlington,48.45803900000004,-122.33892099999997,USW00024255,"WHIDBEY ISLAND NAS, WA US",,
"Pasco/Kennewick/Richland, WA",M,90.19,KONA-AM (Kennewick-Richland-Pasco),46.17291000000006,-119.06972999999999,USW00024155,"PENDLETON E OR REGIONAL AIRPORT, OR US",,
"Rapid City, SD",T,100.0,"Rapid City, South Dakota",44.08305340000004,-103.22444199999995,USW00024090,"RAPID CITY REGIONAL AIRPORT, SD US",,
"Roche Harbor, WA",M,100.0,"Roche Harbor, Washington",48.60805140000008,-123.15214789999999,USW00024255,"WHIDBEY ISLAND NAS, WA US",,
"Bend/Redmond, OR",T,87.69,"Redmond, Oregon",44.27255300000007,-121.17430999999999,USW00024230,"REDMOND AIRPORT, OR US",,
"Renton, WA",T,100.0,"Renton, Washington",47.47465820000008,-122.20679029999997,USW00024233,"SEATTLE TACOMA AIRPORT, WA US",,
"Roanoke, VA",T,100.0,"Roanoke, Virginia",37.27113300000008,-79.93905599999994,USW00013733,"LYNCHBURG REGIONAL AIRPORT, VA US",,
"Pittsfield, MA",T,100.0,"Pittsfield, Massachusetts",42.44502700000004,-73.25280399999997,USW00014740,"HARTFORD BRADLEY INTERNATIONAL AIRPORT, CT US",,
"Hillsboro, OR",T,100.0,"Hillsboro, Oregon",45.52395000000007,-122.98973899999999,USW00024232,"SALEM AIRPORT MCNARY FIELD, OR US",,
"Eugene, OR",T,100.0,"Eugene, Oregon",44.05215300000003,-123.09119499999997,USW00024221,"EUGENE MAHLON SWEET FIELD, OR US",,
"Binghamton, NY",T,100.0,"Binghamton, New York",42.09870200000006,-75.91254299999997,USW00004725,"BINGHAMTON GREATER AP, NY US",,
"Port Angeles, WA",T,100.0,"Port Angeles, Washington",48.12846500000006,-123.47406499999994,USC00456846,"QUILCENE 2 SW, WA US",,
"Clemson, SC",T,100.0,"Clemson, South Carolina",34.68868500000008,-82.83488499999999,USW00013873,"ATHENS BEN EPPS AIRPORT, GA US",,
"Sault Ste. Marie, MI",T,100.0,"Sault Ste. Marie, Michigan",46.49769070000008,-84.34759749999995,USW00014847,"SAULT STE MARIE SANDERSON FIELD, MI US",,
"Batesville, AR",T,100.0,"Batesville, Arkansas",35.777648000000056,-91.64078099999995,USW00093991,"WALNUT RIDGE MUNICIPAL AIRPORT, AR US",,
"Bowling Green, KY",T,100.0,"Bowling Green, Kentucky",37.00240500000007,-86.44348599999995,USW00093808,"BOWLING GREEN WARREN CO AIRPORT, KY US",,
"New Bedford/Fall River, MA",T,89.79,"Bedford St, Fall River, Massachusetts, 02720",41.70067904200005,-71.14854139999994,USW00014765,"RHODE ISLAND T.F. GREEN INTERNATIONAL AIRPORT, RI US",,
"Mosinee, WI",T,100.0,"Mosinee, Wisconsin",44.78267640000007,-89.68950579999995,USW00014897,"WAUSAU ASOS, WI US",,
"Idaho Falls, ID",T,100.0,"Idaho Falls, Idaho",43.491370000000074,-112.04022639999994,USW00024156,"POCATELLO REGIONAL AIRPORT, ID US",,
"Fort Collins/Loveland, CO",M,94.1,Fort Collins Loveland Krav Maga,40.50613500000003,-105.07674999999995,USW00024018,"CHEYENNE WSFO AIRPORT, WY US",,
"Gainesville, GA",T,100.0,"Gainesville, Georgia",34.29877200000004,-83.82962899999995,USW00013873,"ATHENS BEN EPPS AIRPORT, GA US",,
"Ashland, WV",M,100.0,"Ashland, West Virginia",37.40804700000007,-81.35000899999994,USW00003872,"BECKLEY RALEIGH CO AIRPORT, WV US",,
"Key Largo, FL",T,100.0,"Key Largo, Florida",25.130026000000043,-80.40596199999999,USW00012839,"MIAMI INTERNATIONAL AIRPORT, FL US",,
"Olympia, WA",T,100.0,"Olympia, Washington",47.03553400000004,-122.90082699999999,USW00024233,"SEATTLE TACOMA AIRPORT, WA US",,
"Greenville, NC",T,100.0,"Greenville, North Carolina",35.61133200000006,-77.37409999999994,USW00093719,"NEW BERN COASTAL CAROLINA REGIONAL AIRPORT, NC US",,
"Port Huron, MI",T,100.0,"Port Huron, Michigan",42.97504100000003,-82.42452199999997,USW00014822,"DETROIT CITY AIRPORT, MI US",,
"Salisbury, MD",T,100.0,"Salisbury, Maryland",38.36556800000005,-75.59918099999999,USW00093739,"WALLOPS ISLAND NASA TEST FACILITY, VA US",,
"Deadhorse, AK",T,100.0,"Deadhorse, Alaska",70.21225460000005,-148.43548309999997,USW00027406,"DEADHORSE, AK US",,
"State College, PA",T,100.0,"State College, Pennsylvania",40.78967600000004,-77.85805499999998,USW00014736,"ALTOONA BLAIR CO AIRPORT, PA US",,
"Pinehurst/Southern Pines, NC",M,98.21,"Pinehurst Ave, Southern Pines, North Carolina, 28387",35.160337850000076,-79.41665106999994,USW00013722,"RALEIGH DURHAM INTERNATIONAL AIRPORT, NC US",,
"Tyler, TX",T,100.0,"Tyler, Texas",32.35076300000003,-95.30064399999998,USW00003901,"LONGVIEW E TX REGIONAL AIRPORT, TX US",,
"Fayetteville, AR",T,100.0,"Fayetteville, Arkansas",36.06192800000008,-94.16058299999997,USW00013964,"FORT SMITH REGIONAL AIRPORT, AR US",,
"El Centro, CA",T,100.0,"El Centro, California",32.79285500000003,-115.56555099999997,USW00023199,"EL CENTRO NAF, CA US",,
"Fort Leonard Wood, MO",T,100.0,"Fort Leonard Wood, Missouri",37.71685300000007,-92.14267499999994,USW00013997,"VICHY ROLLA NATIONAL AIRPORT, MO US",,
"Nogales, AZ",T,100.0,"Nogales, Arizona",31.341931000000045,-110.93412899999998,USW00003124,"FORT HUACHUCA SIERRA VISTA MUNICIPAL AIRPORT, AZ US",,
"Sumter, SC",T,100.0,"Sumter, South Carolina",33.930267300000025,-80.36748069999999,USW00013744,"FLORENCE REGIONAL AIRPORT, SC US",,
